{
  "type" : "FeatureCollection",
  "features" : [{"type":"Feature","id":0,"geometry":{"type":"Point","coordinates":[-75.544475954475203,6.2452630893206207]},"properties":{"FID":0,"nombre":"El Pinal","linea":"Línea M","estado":3,"tipo":2,"tipo_est":"Estación"}},{"type":"Feature","id":1,"geometry":{"type":"Point","coordinates":[-75.567318898515154,6.3018826719844432]},"properties":{"FID":1,"nombre":"Sena-Pedregal","linea":"Línea P","estado":1,"tipo":2,"tipo_est":"Estación"}},{"type":"Feature","id":2,"geometry":{"type":"Point","coordinates":[-75.575947214060335,6.30424822975003]},"properties":{"FID":2,"nombre":"Doce de Octubre","linea":"Línea P","estado":1,"tipo":2,"tipo_est":"Estación"}},{"type":"Feature","id":3,"geometry":{"type":"Point","coordinates":[-75.582333587244804,6.3059990192252213]},"properties":{"FID":3,"nombre":"El Progreso","linea":"Línea P","estado":1,"tipo":2,"tipo_est":"Estación"}},{"type":"Feature","id":4,"geometry":{"type":"Point","coordinates":[-75.558308021666008,6.3002721756739248]},"properties":{"FID":4,"nombre":"Acevedo","linea":"Línea A","estado":1,"tipo":1,"tipo_est":"Estación"}},{"type":"Feature","id":5,"geometry":{"type":"Point","coordinates":[-75.564697842361568,6.2903039133583922]},"properties":{"FID":5,"nombre":"Tricentenario","linea":"Línea A","estado":1,"tipo":1,"tipo_est":"Estación"}},{"type":"Feature","id":6,"geometry":{"type":"Point","coordinates":[-75.569423530387098,6.2783294208380687]},"properties":{"FID":6,"nombre":"Caribe","linea":"Línea A","estado":1,"tipo":1,"tipo_est":"Estación"}},{"type":"Feature","id":7,"geometry":{"type":"Point","coordinates":[-75.565793534811107,6.2694122624379611]},"properties":{"FID":7,"nombre":"Universidad","linea":"Línea A","estado":1,"tipo":1,"tipo_est":"Estación"}},{"type":"Feature","id":8,"geometry":{"type":"Point","coordinates":[-75.563348346647359,6.2639371896981579]},"properties":{"FID":8,"nombre":"Hospital","linea":"Línea A","estado":1,"tipo":1,"tipo_est":"Estación"}},{"type":"Feature","id":9,"geometry":{"type":"Point","coordinates":[-75.56616259119933,6.2568504149419377]},"properties":{"FID":9,"nombre":"Prado","linea":"Línea A","estado":1,"tipo":1,"tipo_est":"Estación"}},{"type":"Feature","id":10,"geometry":{"type":"Point","coordinates":[-75.568222469816504,6.2505035586153888]},"properties":{"FID":10,"nombre":"Parque Berrío","linea":"Línea A","estado":1,"tipo":1,"tipo_est":"Estación"}},{"type":"Feature","id":11,"geometry":{"type":"Point","coordinates":[-75.569709750446165,6.2471970472321017]},"properties":{"FID":11,"nombre":"San Antonio","linea":"Línea A","estado":1,"tipo":1,"tipo_est":"Estación"}},{"type":"Feature","id":12,"geometry":{"type":"Point","coordinates":[-75.575151829710634,6.2490539926621]},"properties":{"FID":12,"nombre":"Cisneros","linea":"Línea B","estado":1,"tipo":1,"tipo_est":"Estación"}},{"type":"Feature","id":13,"geometry":{"type":"Point","coordinates":[-75.571409391037548,6.2429605209395849]},"properties":{"FID":13,"nombre":"Alpujarra","linea":"Línea A","estado":1,"tipo":1,"tipo_est":"Estación"}},{"type":"Feature","id":14,"geometry":{"type":"Point","coordinates":[-75.573161075899463,6.2384196395391918]},"properties":{"FID":14,"nombre":"Exposiciones","linea":"Línea A","estado":1,"tipo":1,"tipo_est":"Estación"}},{"type":"Feature","id":15,"geometry":{"type":"Point","coordinates":[-75.575547093123873,6.2306154091721346]},"properties":{"FID":15,"nombre":"Industriales","linea":"Línea A","estado":1,"tipo":1,"tipo_est":"Estación"}},{"type":"Feature","id":16,"geometry":{"type":"Point","coordinates":[-75.578018474302525,6.212712849008927]},"properties":{"FID":16,"nombre":"Poblado","linea":"Línea A","estado":1,"tipo":1,"tipo_est":"Estación"}},{"type":"Feature","id":17,"geometry":{"type":"Point","coordinates":[-75.581624776550697,6.194429962970065]},"properties":{"FID":17,"nombre":"Aguacatala","linea":"Línea A","estado":1,"tipo":1,"tipo_est":"Estación"}},{"type":"Feature","id":18,"geometry":{"type":"Point","coordinates":[-75.582943001125969,6.2529783836328683]},"properties":{"FID":18,"nombre":"Suramericana","linea":"Línea B","estado":1,"tipo":1,"tipo_est":"Estación"}},{"type":"Feature","id":19,"geometry":{"type":"Point","coordinates":[-75.588277767549428,6.253342459518314]},"properties":{"FID":19,"nombre":"Estadio","linea":"Línea B","estado":1,"tipo":1,"tipo_est":"Estación"}},{"type":"Feature","id":20,"geometry":{"type":"Point","coordinates":[-75.597735823220376,6.2587161359419463]},"properties":{"FID":20,"nombre":"Floresta","linea":"Línea B","estado":1,"tipo":1,"tipo_est":"Estación"}},{"type":"Feature","id":21,"geometry":{"type":"Point","coordinates":[-75.603793612160544,6.2580272392016179]},"properties":{"FID":21,"nombre":"Santa Lucía","linea":"Línea B","estado":1,"tipo":1,"tipo_est":"Estación"}},{"type":"Feature","id":22,"geometry":{"type":"Point","coordinates":[-75.613419258931629,6.2566490063730109]},"properties":{"FID":22,"nombre":"San Javier","linea":"Línea B","estado":1,"tipo":1,"tipo_est":"Estación"}},{"type":"Feature","id":23,"geometry":{"type":"Point","coordinates":[-75.555282405844594,6.3153195913580884]},"properties":{"FID":23,"nombre":"Madera","linea":"Línea A","estado":1,"tipo":1,"tipo_est":"Estación"}},{"type":"Feature","id":24,"geometry":{"type":"Point","coordinates":[-75.553381240769383,6.330537795710188]},"properties":{"FID":24,"nombre":"Bello","linea":"Línea A","estado":1,"tipo":1,"tipo_est":"Estación"}},{"type":"Feature","id":25,"geometry":{"type":"Point","coordinates":[-75.544311784470906,6.3378165428553102]},"properties":{"FID":25,"nombre":"Niquía","linea":"Línea A","estado":1,"tipo":1,"tipo_est":"Estación"}},{"type":"Feature","id":26,"geometry":{"type":"Point","coordinates":[-75.585615944391122,6.1864704227941409]},"properties":{"FID":26,"nombre":"Ayurá","linea":"Línea A","estado":1,"tipo":1,"tipo_est":"Estación"}},{"type":"Feature","id":27,"geometry":{"type":"Point","coordinates":[-75.597069259406823,6.1746874723649068]},"properties":{"FID":27,"nombre":"Envigado","linea":"Línea A","estado":1,"tipo":1,"tipo_est":"Estación"}},{"type":"Feature","id":28,"geometry":{"type":"Point","coordinates":[-75.606865516322159,6.1628797637033097]},"properties":{"FID":28,"nombre":"Itagüí","linea":"Línea A","estado":1,"tipo":1,"tipo_est":"Estación"}},{"type":"Feature","id":29,"geometry":{"type":"Point","coordinates":[-75.50297172280483,6.2815457518163482]},"properties":{"FID":29,"nombre":"Arví","linea":"Línea L","estado":1,"tipo":2,"tipo_est":"Estación"}},{"type":"Feature","id":30,"geometry":{"type":"Point","coordinates":[-75.541677564101221,6.2931383098361628]},"properties":{"FID":30,"nombre":"Santo Domingo Savio","linea":"Línea K","estado":1,"tipo":2,"tipo_est":"Estación"}},{"type":"Feature","id":31,"geometry":{"type":"Point","coordinates":[-75.548160608362281,6.2951284678777109]},"properties":{"FID":31,"nombre":"Popular","linea":"Línea K","estado":1,"tipo":2,"tipo_est":"Estación"}},{"type":"Feature","id":32,"geometry":{"type":"Point","coordinates":[-75.55189693974512,6.2962720370731118]},"properties":{"FID":32,"nombre":"Andalucía","linea":"Línea K","estado":1,"tipo":2,"tipo_est":"Estación"}},{"type":"Feature","id":33,"geometry":{"type":"Point","coordinates":[-75.613702549996034,6.2656765122444735]},"properties":{"FID":33,"nombre":"Juan XXIII","linea":"Línea J","estado":1,"tipo":2,"tipo_est":"Estación"}},{"type":"Feature","id":34,"geometry":{"type":"Point","coordinates":[-75.614017031599431,6.275357316377046]},"properties":{"FID":34,"nombre":"Vallejuelos","linea":"Línea J","estado":1,"tipo":2,"tipo_est":"Estación"}},{"type":"Feature","id":35,"geometry":{"type":"Point","coordinates":[-75.614203385933592,6.2810931641803354]},"properties":{"FID":35,"nombre":"La  Aurora","linea":"Línea J","estado":1,"tipo":2,"tipo_est":"Estación"}},{"type":"Feature","id":36,"geometry":{"type":"Point","coordinates":[-75.609308089921356,6.2307992755992059]},"properties":{"FID":36,"nombre":"Universidad de Medellín","linea":"Línea 1","estado":1,"tipo":3,"tipo_est":"Estación"}},{"type":"Feature","id":37,"geometry":{"type":"Point","coordinates":[-75.605167467429936,6.2310547883395948]},"properties":{"FID":37,"nombre":"Los Alpes","linea":"Línea 1","estado":1,"tipo":3,"tipo_est":"Parada"}},{"type":"Feature","id":38,"geometry":{"type":"Point","coordinates":[-75.601026261152938,6.2311445560455754]},"properties":{"FID":38,"nombre":"La Palma","linea":"Línea 1","estado":1,"tipo":3,"tipo_est":"Parada"}},{"type":"Feature","id":39,"geometry":{"type":"Point","coordinates":[-75.596748779249168,6.2313626425427833]},"properties":{"FID":39,"nombre":"Parque Belén","linea":"Línea 1","estado":1,"tipo":3,"tipo_est":"Parada"}},{"type":"Feature","id":40,"geometry":{"type":"Point","coordinates":[-75.590969127002168,6.2315640414499525]},"properties":{"FID":40,"nombre":"Rosales","linea":"Línea 1","estado":1,"tipo":3,"tipo_est":"Parada"}},{"type":"Feature","id":41,"geometry":{"type":"Point","coordinates":[-75.58656265921654,6.2316814522902559]},"properties":{"FID":41,"nombre":"Fátima","linea":"Línea 1","estado":1,"tipo":3,"tipo_est":"Parada"}},{"type":"Feature","id":42,"geometry":{"type":"Point","coordinates":[-75.58205627610694,6.2318037672417503]},"properties":{"FID":42,"nombre":"Nutibara","linea":"Línea 1","estado":1,"tipo":3,"tipo_est":"Parada"}},{"type":"Feature","id":43,"geometry":{"type":"Point","coordinates":[-75.576629858055128,6.2304880357375323]},"properties":{"FID":43,"nombre":"Industriales","linea":"Línea 1","estado":1,"tipo":3,"tipo_est":"Estación"}},{"type":"Feature","id":44,"geometry":{"type":"Point","coordinates":[-75.57534460513061,6.2436604073360815]},"properties":{"FID":44,"nombre":"Plaza Mayor","linea":"Línea 1","estado":1,"tipo":3,"tipo_est":"Parada"}},{"type":"Feature","id":45,"geometry":{"type":"Point","coordinates":[-75.575077237611737,6.2508550167878658]},"properties":{"FID":45,"nombre":"Cisneros-Moda","linea":"Línea 1","estado":1,"tipo":3,"tipo_est":"Parada"}},{"type":"Feature","id":46,"geometry":{"type":"Point","coordinates":[-75.573180235711447,6.2561254725245012]},"properties":{"FID":46,"nombre":"Minorista","linea":"Línea 1","estado":1,"tipo":3,"tipo_est":"Parada"}},{"type":"Feature","id":47,"geometry":{"type":"Point","coordinates":[-75.569170474847908,6.2607251268441368]},"properties":{"FID":47,"nombre":"Chagualo","linea":"Línea 1","estado":1,"tipo":3,"tipo_est":"Parada"}},{"type":"Feature","id":48,"geometry":{"type":"Point","coordinates":[-75.567620995960652,6.2639389581622069]},"properties":{"FID":48,"nombre":"RutaN-UdeA","linea":"Línea 1","estado":1,"tipo":3,"tipo_est":"Parada"}},{"type":"Feature","id":49,"geometry":{"type":"Point","coordinates":[-75.560178023025927,6.2634416884849724]},"properties":{"FID":49,"nombre":"San Pedro","linea":"Línea 1","estado":1,"tipo":3,"tipo_est":"Parada"}},{"type":"Feature","id":50,"geometry":{"type":"Point","coordinates":[-75.555873534298414,6.2620942118894041]},"properties":{"FID":50,"nombre":"Palos Verdes","linea":"Línea 1","estado":1,"tipo":3,"tipo_est":"Parada"}},{"type":"Feature","id":51,"geometry":{"type":"Point","coordinates":[-75.555011083912817,6.2676651965237395]},"properties":{"FID":51,"nombre":"Gardel","linea":"Línea 1","estado":1,"tipo":3,"tipo_est":"Parada"}},{"type":"Feature","id":52,"geometry":{"type":"Point","coordinates":[-75.554052884875574,6.2732526485091826]},"properties":{"FID":52,"nombre":"Manrique","linea":"Línea 1","estado":1,"tipo":3,"tipo_est":"Parada"}},{"type":"Feature","id":53,"geometry":{"type":"Point","coordinates":[-75.553144343929944,6.2783897953070378]},"properties":{"FID":53,"nombre":"Las Esmeraldas","linea":"Línea 1","estado":1,"tipo":3,"tipo_est":"Parada"}},{"type":"Feature","id":54,"geometry":{"type":"Point","coordinates":[-75.552907573526326,6.2829295960342186]},"properties":{"FID":54,"nombre":"Berlín","linea":"Línea 1","estado":1,"tipo":3,"tipo_est":"Parada"}},{"type":"Feature","id":55,"geometry":{"type":"Point","coordinates":[-75.55661096762195,6.2851990438975305]},"properties":{"FID":55,"nombre":"Parque Aranjuez","linea":"Línea 1","estado":1,"tipo":3,"tipo_est":"Parada"}},{"type":"Feature","id":56,"geometry":{"type":"Point","coordinates":[-75.616196531161066,6.1577249450579181]},"properties":{"FID":56,"nombre":"Sabaneta","linea":"Línea A","estado":1,"tipo":1,"tipo_est":"Estación"}},{"type":"Feature","id":57,"geometry":{"type":"Point","coordinates":[-75.62635274863112,6.1527471245736649]},"properties":{"FID":57,"nombre":"La Estrella","linea":"Línea A","estado":1,"tipo":1,"tipo_est":"Estación"}},{"type":"Feature","id":58,"geometry":{"type":"Point","coordinates":[-75.541732706721874,6.2355017664865269]},"properties":{"FID":58,"nombre":"Alejandro Echavarría","linea":"Línea T-A","estado":1,"tipo":4,"tipo_est":"Estación"}},{"type":"Feature","id":59,"geometry":{"type":"Point","coordinates":[-75.541394503629022,6.2476151794551518]},"properties":{"FID":59,"nombre":"13 de Noviembre","linea":"Línea M","estado":3,"tipo":2,"tipo_est":"Estación"}},{"type":"Feature","id":60,"geometry":{"type":"Point","coordinates":[-75.558778676396912,6.2439588209524413]},"properties":{"FID":60,"nombre":"Bicentenario","linea":"Línea T-A","estado":1,"tipo":4,"tipo_est":"Estación"}},{"type":"Feature","id":61,"geometry":{"type":"Point","coordinates":[-75.545176237682583,6.2390656784773517]},"properties":{"FID":61,"nombre":"Loyola","linea":"Línea T-A","estado":1,"tipo":4,"tipo_est":"Estación"}},{"type":"Feature","id":62,"geometry":{"type":"Point","coordinates":[-75.540139742065577,6.2331502061676902]},"properties":{"FID":62,"nombre":"Oriente","linea":"Línea T-A","estado":1,"tipo":4,"tipo_est":"Estación"}},{"type":"Feature","id":63,"geometry":{"type":"Point","coordinates":[-75.561993289608438,6.2455886040310924]},"properties":{"FID":63,"nombre":"Pabellón del Agua EPM","linea":"Línea T-A","estado":1,"tipo":4,"tipo_est":"Estación"}},{"type":"Feature","id":64,"geometry":{"type":"Point","coordinates":[-75.528679478310153,6.2348745365420086]},"properties":{"FID":64,"nombre":"Villa Sierra","linea":"Línea H","estado":3,"tipo":2,"tipo_est":"Estación"}},{"type":"Feature","id":65,"geometry":{"type":"Point","coordinates":[-75.565386216881208,6.247329146794832]},"properties":{"FID":65,"nombre":"San José","linea":"Línea T-A","estado":1,"tipo":4,"tipo_est":"Estación"}},{"type":"Feature","id":66,"geometry":{"type":"Point","coordinates":[-75.536372118903301,6.236645403566663]},"properties":{"FID":66,"nombre":"Las Torres","linea":"Línea H","estado":3,"tipo":2,"tipo_est":"Estación"}},{"type":"Feature","id":67,"geometry":{"type":"Point","coordinates":[-75.553906586231022,6.2414026425448998]},"properties":{"FID":67,"nombre":"Buenos Aires","linea":"Línea T-A","estado":1,"tipo":4,"tipo_est":"Estación"}},{"type":"Feature","id":68,"geometry":{"type":"Point","coordinates":[-75.548990854966704,6.2413795407725781]},"properties":{"FID":68,"nombre":"Miraflores","linea":"Línea T-A","estado":1,"tipo":4,"tipo_est":"Estación"}},{"type":"Feature","id":69,"geometry":{"type":"Point","coordinates":[-75.571027792039899,6.2285753555793999]},"properties":{"FID":69,"nombre":"Barrio Colombia","linea":"Línea 2","estado":1,"tipo":3,"tipo_est":"Paradero"}},{"type":"Feature","id":70,"geometry":{"type":"Point","coordinates":[-75.569861188226668,6.2289619520364559]},"properties":{"FID":70,"nombre":"Barrio Colombia B","linea":"Línea 2","estado":1,"tipo":3,"tipo_est":"Paradero"}},{"type":"Feature","id":71,"geometry":{"type":"Point","coordinates":[-75.570072044944396,6.2336485717689163]},"properties":{"FID":71,"nombre":"San Diego","linea":"Línea 2","estado":1,"tipo":3,"tipo_est":"Paradero"}},{"type":"Feature","id":72,"geometry":{"type":"Point","coordinates":[-75.569887468014869,6.2404845203265911]},"properties":{"FID":72,"nombre":"Colón","linea":"Línea 2","estado":1,"tipo":3,"tipo_est":"Paradero"}},{"type":"Feature","id":73,"geometry":{"type":"Point","coordinates":[-75.566676452461763,6.2464092563257738]},"properties":{"FID":73,"nombre":"San José","linea":"Línea 2","estado":1,"tipo":3,"tipo_est":"Paradero"}},{"type":"Feature","id":74,"geometry":{"type":"Point","coordinates":[-75.564469162706018,6.2496033817395436]},"properties":{"FID":74,"nombre":"La Playa","linea":"Línea 2","estado":1,"tipo":3,"tipo_est":"Paradero"}},{"type":"Feature","id":75,"geometry":{"type":"Point","coordinates":[-75.562521483558314,6.2530221215417532]},"properties":{"FID":75,"nombre":"Catedral Metropolitana","linea":"Línea 2","estado":1,"tipo":3,"tipo_est":"Paradero"}},{"type":"Feature","id":76,"geometry":{"type":"Point","coordinates":[-75.559588139798379,6.2587972194701287]},"properties":{"FID":76,"nombre":"Prado A","linea":"Línea 2","estado":1,"tipo":3,"tipo_est":"Paradero"}},{"type":"Feature","id":77,"geometry":{"type":"Point","coordinates":[-75.560372926659127,6.2589703118077971]},"properties":{"FID":77,"nombre":"Prado B","linea":"Línea 2","estado":1,"tipo":3,"tipo_est":"Paradero"}},{"type":"Feature","id":78,"geometry":{"type":"Point","coordinates":[-75.556402594209672,6.2632559279363198]},"properties":{"FID":78,"nombre":"Palos Verdes B","linea":"Línea 2","estado":1,"tipo":3,"tipo_est":"Paradero"}},{"type":"Feature","id":79,"geometry":{"type":"Point","coordinates":[-75.541947078717726,6.2927608066816489]},"properties":{"FID":79,"nombre":"Santo Domingo Savio","linea":"Línea L","estado":1,"tipo":2,"tipo_est":"Estación"}},{"type":"Feature","id":80,"geometry":{"type":"Point","coordinates":[-75.558807973396029,6.2995491279136546]},"properties":{"FID":80,"nombre":"Acevedo","linea":"Línea P","estado":1,"tipo":2,"tipo_est":"Estación"}}]
}